{
    "line":4,
    "markers":[
        {
            "name":"จุดอาคารสารนิเทศ 50 ปี",
            "coordinate":{"latitude":13.852595,
            "longitude":100.570578}
        },
        {
            "name":"จุดคณะอุตสาหกรรมเกษตร",
            "coordinate":{"latitude":13.850766,
            "longitude":100.570551}
        },
        {
            "name":"จุดคณะเกษตร",
            "coordinate":{"latitude":13.849262,
            "longitude":100.570580}
        },
        {
            "name":"จุดศูนย์เรียนรวม 1",
            "coordinate":{"latitude":13.846940,
            "longitude":100.570620}
        },
        {
            "name":"จุดคณะวิทยาศาสตร์ ตึกฟิสิกส์",
            "coordinate":{"latitude":13.845981,
            "longitude":100.570478}
        },
        {
            "name":"จุดคณะเศรษฐศาสตร์",
            "coordinate":{"latitude":13.843809,
            "longitude":100.570285}
        },
        {
            "name":"จุดประตูงามวงศ์วาน 1",
            "coordinate":{"latitude":13.843025,
            "longitude":100.570767}
        },
        {
            "name":"จุดอาคารวิทยพัฒนา",
            "coordinate":{"latitude":13.843044,
            "longitude":100.572029}
        },
        {
            "name":"จุดคณะวิทยาศาสตร์ SCL",
            "coordinate":{"latitude":13.844602,
            "longitude":100.572590}
        },
        {
            "name":"จุดคณะวนศาสตร์",
            "coordinate":{"latitude":13.846447,
            "longitude":100.572598}
        },
        {
            "name":"จุดสำนักหอสมุด",
            "coordinate":{"latitude":13.847825,
            "longitude":100.572592}
        },
        {
            "name":"จุดคณะเกษตร",
            "coordinate":{"latitude":13.848826,
            "longitude":100.572608}
        },
        {
            "name":"จุดอาคารพุทธเกษตร",
            "coordinate":{"latitude":13.850548,
            "longitude":100.572632}
        },
        {
            "name":"จุดคณะอุตสาหกรรมเกษตร",
            "coordinate":{"latitude":13.851926,
            "longitude":100.572637}
        },
        {
            "name":"จุดโรงอาหารกลาง 2",
            "coordinate":{"latitude":13.852573,
            "longitude":100.572120}
        }
    ]
}